{
    "items": [
        {
            "id": "row_01a27163bed1",
            "round": 0,
            "city": "",
            "lat": null,
            "lon": null,
            "label": "",
            "address": "",
            "note": "",
            "deadline": "",
            "weight": null,
            "volume": null,
            "﻿id": ""
        },
        {
            "id": "row_0b758cb7c7ad",
            "round": 2,
            "city": "Szigetszentmiklós",
            "lat": 47.3580372,
            "lon": 19.0349059,
            "label": "Molnár Réka",
            "address": "2310 Szigetszentmiklós",
            "note": "Tele autó, kérjük időben jelezni.",
            "deadline": "",
            "weight": 3600,
            "volume": 13,
            "﻿id": ""
        },
        {
            "id": "row_c0841bf03e76",
            "round": 2,
            "city": "Siófok",
            "lat": 46.8981297,
            "lon": 18.0477158,
            "label": "Bognár Júlia",
            "address": "8600 Siófok, Gárdonyi Géza utca 170.",
            "note": "Kapucsengő: 12.",
            "deadline": "",
            "weight": 1400,
            "volume": 5.5,
            "﻿id": ""
        },
        {
            "id": "row_41fda3917714",
            "round": 2,
            "city": "Kaposvár",
            "lat": 46.3564692,
            "lon": 17.7886886,
            "label": "Molnár Péter",
            "address": "Kaposvár",
            "note": "Szűk utca, kisebb jármű kell.",
            "deadline": "",
            "weight": 500,
            "volume": 3.5,
            "﻿id": ""
        },
        {
            "id": "row_b41b0cf7492d",
            "round": 2,
            "city": "Nagykanizsa",
            "lat": 46.4548261,
            "lon": 16.9923923,
            "label": "Farkas Péter",
            "address": "Nagykanizsa",
            "note": "Munkaidőn kívül nem átvehető.",
            "deadline": "",
            "weight": 3500,
            "volume": 1,
            "﻿id": ""
        },
        {
            "id": "row_bb9060682530",
            "round": 3,
            "city": "Budaörs",
            "lat": 47.4587001,
            "lon": 18.953873,
            "label": "Németh Réka",
            "address": "2040 Budaörs, Petőfi Sándor utca 24.",
            "note": "Készpénzes fizetés.",
            "deadline": "",
            "weight": 400,
            "volume": 1,
            "﻿id": ""
        },
        {
            "id": "row_65a1195a8faf",
            "round": 3,
            "city": "Székesfehérvár",
            "lat": 47.1944099,
            "lon": 18.4342423,
            "label": "Szabó Réka",
            "address": "8000 Székesfehérvár",
            "note": "Készpénzes fizetés.",
            "deadline": "",
            "weight": 2000,
            "volume": 10.5,
            "﻿id": ""
        },
        {
            "id": "row_0a12e6373557",
            "round": 3,
            "city": "Balatonalmádi",
            "lat": 47.0248592,
            "lon": 18.0026013,
            "label": "Gulyás József",
            "address": "8200 Veszprém, Gárdonyi Géza utca 193.",
            "note": "Kapu kód: 1923#.",
            "deadline": "",
            "weight": 900,
            "volume": 5.5,
            "﻿id": ""
        },
        {
            "id": "row_7996d02f8ba4",
            "round": 3,
            "city": "Tapolca",
            "lat": 46.8908069,
            "lon": 17.4381375,
            "label": "Fehér István",
            "address": "8300 Tapolca",
            "note": "Kerülni a földutat.",
            "deadline": "",
            "weight": 3900,
            "volume": 10.5,
            "﻿id": ""
        },
        {
            "id": "row_8f49aabdf602",
            "round": 3,
            "city": "Zalaegerszeg",
            "lat": 46.8401729,
            "lon": 16.8401659,
            "label": "Mészáros Erika",
            "address": "8900 Zalaegerszeg",
            "note": "Hétfő–csütörtök 8–15 között átvehető.",
            "deadline": "",
            "weight": 1900,
            "volume": 12,
            "﻿id": ""
        },
        {
            "id": "row_bc7af8ce7665",
            "round": 4,
            "city": "Budapest",
            "lat": 47.5826789,
            "lon": 19.0882252,
            "label": "Tóth Norbert",
            "address": "1011 Budapest, Gárdonyi Géza utca 26\/3.",
            "note": "Csak pénteken szállítható.",
            "deadline": "",
            "weight": 700,
            "volume": 13,
            "﻿id": ""
        },
        {
            "id": "row_bebc8cf46620",
            "round": 4,
            "city": "Tokod",
            "lat": 47.7237728,
            "lon": 18.6637106,
            "label": "Szalai Péter",
            "address": "2500 Esztergom, Bem József utca 7\/2.",
            "note": "Cégér: Zöld Ajtó Kft.",
            "deadline": "",
            "weight": 1700,
            "volume": 5,
            "﻿id": ""
        },
        {
            "id": "row_9bdd22ece779",
            "round": 4,
            "city": "Tatabánya",
            "lat": 47.546728,
            "lon": 18.4447008,
            "label": "Vörös Orsolya",
            "address": "2800 Tatabánya, Deák Ferenc utca 90.",
            "note": "Kerülni a földutat.",
            "deadline": "",
            "weight": 1600,
            "volume": 1,
            "﻿id": ""
        },
        {
            "id": "row_29959ab0ae0f",
            "round": 4,
            "city": "Tata",
            "lat": 47.629452,
            "lon": 18.303389,
            "label": "Takács Balázs",
            "address": "2890 Tata",
            "note": "Emelőhátfal szükséges.",
            "deadline": "",
            "weight": 200,
            "volume": 11.5,
            "﻿id": ""
        },
        {
            "id": "row_2f33b86f5535",
            "round": 4,
            "city": "Győr",
            "lat": 47.6885516,
            "lon": 17.6393737,
            "label": "Tóth Tamás",
            "address": "9022 Győr",
            "note": "Rakodás a hátsó bejáratnál.",
            "deadline": "",
            "weight": 2700,
            "volume": 15,
            "﻿id": ""
        },
        {
            "id": "row_a2bb2feaf5d0",
            "round": 4,
            "city": "Mosonmagyaróvár",
            "lat": 47.8541539,
            "lon": 17.2639522,
            "label": "Varga Noémi",
            "address": "9200 Mosonmagyaróvár, Szabadság utca 98.",
            "note": "Rakodás a hátsó bejáratnál.",
            "deadline": "",
            "weight": 1600,
            "volume": 4,
            "﻿id": ""
        },
        {
            "id": "row_4f31f93a93b7",
            "round": 4,
            "city": "Sopron",
            "lat": 47.6935024,
            "lon": 16.5897441,
            "label": "Kiss Zsófia",
            "address": "9400 Sopron",
            "note": "Készpénzes fizetés.",
            "deadline": "",
            "weight": 3400,
            "volume": 8.5,
            "﻿id": ""
        },
        {
            "id": "row_99a6d5734905",
            "round": 4,
            "city": "Szombathely",
            "lat": 47.2291184,
            "lon": 16.6187625,
            "label": "Liszkai Norbert",
            "address": "Szombathely",
            "note": "Emelőhátfal szükséges.",
            "deadline": "",
            "weight": 3600,
            "volume": 5,
            "﻿id": ""
        },
        {
            "id": "row_618693f05b82",
            "round": 4,
            "city": "Körmend",
            "lat": 47.0181962,
            "lon": 16.5976978,
            "label": "Balogh Orsolya",
            "address": "9900 Körmend",
            "note": "Emelet: 3., lift nincs.",
            "deadline": "",
            "weight": 800,
            "volume": 2,
            "﻿id": ""
        },
        {
            "id": "row_9ccf0634c1f0",
            "round": 4,
            "city": "Pápa",
            "lat": 47.3368659,
            "lon": 17.4584362,
            "label": "Fekete Nikolett",
            "address": "8500 Pápa, Arany János utca 183.",
            "note": "Érkezés után 10 perc várakozás.",
            "deadline": "",
            "weight": 3000,
            "volume": 15,
            "﻿id": ""
        },
        {
            "id": "row_2f4fa8aab0af",
            "round": 5,
            "city": "Kecskemét",
            "lat": 46.931132,
            "lon": 19.5603625,
            "label": "Fekete Tamás",
            "address": "6000 Kecskemét, Béke utca 68\/2.",
            "note": "Tele autó, kérjük időben jelezni.",
            "deadline": "",
            "weight": 1700,
            "volume": 6.5,
            "﻿id": ""
        },
        {
            "id": "row_5ddfb4d3aa10",
            "round": 5,
            "city": "Kiskunfélegyháza",
            "lat": 46.7114381,
            "lon": 19.8501648,
            "label": "Gulyás Katalin",
            "address": "Kiskunfélegyháza",
            "note": "Kerülni a földutat.",
            "deadline": "",
            "weight": 1000,
            "volume": 9,
            "﻿id": ""
        },
        {
            "id": "row_5fcace16cbc3",
            "round": 5,
            "city": "Szentes",
            "lat": 46.6504323,
            "lon": 20.2569744,
            "label": "Vörös Erika",
            "address": "6600 Szentes, Iskola utca 93.",
            "note": "Tele autó, kérjük időben jelezni.",
            "deadline": "",
            "weight": 400,
            "volume": 11.5,
            "﻿id": ""
        },
        {
            "id": "row_0bcb93651e17",
            "round": 5,
            "city": "Orosháza",
            "lat": 46.555191,
            "lon": 20.668845,
            "label": "Juhász Péter",
            "address": "5900 Orosháza, Deák Ferenc utca 1.",
            "note": "Készpénzes fizetés.",
            "deadline": "2025-10-17",
            "weight": 3400,
            "volume": 13,
            "﻿id": ""
        },
        {
            "id": "row_ef991c49976b",
            "round": 6,
            "city": "Kiskőrös",
            "lat": 46.6148131,
            "lon": 19.2912764,
            "label": "Szalai Beáta",
            "address": "6200 Kiskőrös, Petőfi Sándor utca 92\/1.",
            "note": "Raklapemelő szükséges.",
            "deadline": "",
            "weight": 2400,
            "volume": 13,
            "﻿id": ""
        },
        {
            "id": "row_a74cfd73e699",
            "round": 6,
            "city": "Szeged",
            "lat": 46.2510146,
            "lon": 20.1490055,
            "label": "Bognár András",
            "address": "6720 Szeged",
            "note": "Kapucsengő: 12.",
            "deadline": "",
            "weight": 3600,
            "volume": 1.5,
            "﻿id": ""
        },
        {
            "id": "row_5a46c59289a3",
            "round": 6,
            "city": "Hódmezővásárhely",
            "lat": 46.4171344,
            "lon": 20.3196068,
            "label": "Fekete Zoltán",
            "address": "Hódmezővásárhely",
            "note": "Rakodás a hátsó bejáratnál.",
            "deadline": "",
            "weight": 2800,
            "volume": 4,
            "﻿id": ""
        },
        {
            "id": "row_a66b4187e9e3",
            "round": 7,
            "city": "Jászberény",
            "lat": 47.4900663,
            "lon": 19.9128651,
            "label": "Kovács Éva",
            "address": "5100 Jászberény",
            "note": "Emelet: 3., lift nincs.",
            "deadline": "",
            "weight": 3500,
            "volume": 6,
            "﻿id": ""
        },
        {
            "id": "row_ee3553698617",
            "round": 7,
            "city": "Szolnok",
            "lat": 47.1778233,
            "lon": 20.1990769,
            "label": "Takács Gábor",
            "address": "5000 Szolnok, Móra Ferenc utca 68.",
            "note": "Kutyára figyelni!",
            "deadline": "2025-10-17",
            "weight": 2000,
            "volume": 7.5,
            "﻿id": ""
        },
        {
            "id": "row_69f3bbe3125f",
            "round": 7,
            "city": "Mezőtúr",
            "lat": 46.9903869,
            "lon": 20.6030129,
            "label": "Szilágyi Bence",
            "address": "5400 Mezőtúr",
            "note": "Tele autó, kérjük időben jelezni.",
            "deadline": "",
            "weight": 1300,
            "volume": 2,
            "﻿id": ""
        },
        {
            "id": "row_9d0c20175049",
            "round": 7,
            "city": "Békéscsaba",
            "lat": 46.6738417,
            "lon": 21.0918552,
            "label": "Molnár Katalin",
            "address": "5600 Békéscsaba, Bartók Béla út 2\/3.",
            "note": "1 órával előtte hívni.",
            "deadline": "",
            "weight": 1600,
            "volume": 2,
            "﻿id": ""
        },
        {
            "id": "row_b7ad9c29c7a9",
            "round": 7,
            "city": "Gyula",
            "lat": 46.6510008,
            "lon": 21.270878,
            "label": "Horváth Csaba",
            "address": "5700 Gyula, Ady Endre utca 139.",
            "note": "Csak előzetes egyeztetéssel.",
            "deadline": "",
            "weight": 200,
            "volume": 10.5,
            "﻿id": ""
        },
        {
            "id": "row_f824bd142dbf",
            "round": 8,
            "city": "Hatvan",
            "lat": 47.6608866,
            "lon": 19.652816,
            "label": "Kovács Beáta",
            "address": "3000 Hatvan, Táncsics Mihály utca 19.",
            "note": "Készpénzes fizetés.",
            "deadline": "",
            "weight": 3300,
            "volume": 4,
            "﻿id": ""
        },
        {
            "id": "row_1a0bb977ab16",
            "round": 8,
            "city": "Gyöngyös",
            "lat": 47.7779594,
            "lon": 19.9256706,
            "label": "Németh Tamás",
            "address": "3200 Gyöngyös",
            "note": "Kapucsengő: 12.",
            "deadline": "",
            "weight": 2100,
            "volume": 8,
            "﻿id": ""
        },
        {
            "id": "row_203bb3bbae97",
            "round": 9,
            "city": "Salgótarján",
            "lat": 48.1084023,
            "lon": 19.8109075,
            "label": "Barta Erika",
            "address": "3100 Salgótarján, Rákóczi út 156.",
            "note": "Emelőhátfal szükséges.",
            "deadline": "",
            "weight": 1700,
            "volume": 3.5,
            "﻿id": ""
        },
        {
            "id": "row_33ee58274ede",
            "round": 9,
            "city": "Ózd",
            "lat": 48.231118,
            "lon": 20.2950174,
            "label": "Mészáros Balázs",
            "address": "3600 Ózd",
            "note": "Kerülni a földutat.",
            "deadline": "",
            "weight": 2200,
            "volume": 14,
            "﻿id": ""
        },
        {
            "id": "row_06cbae50fa20",
            "round": 10,
            "city": "Eger",
            "lat": 47.907144,
            "lon": 20.3811204,
            "label": "Barta Eszter",
            "address": "3300 Eger, Gárdonyi Géza utca 77.",
            "note": "Raklapemelő szükséges.",
            "deadline": "",
            "weight": 1000,
            "volume": 5,
            "﻿id": ""
        },
        {
            "id": "row_907e99bb7388",
            "round": 10,
            "city": "Karcag",
            "lat": 47.314646,
            "lon": 20.9240941,
            "label": "Balogh Nikolett",
            "address": "Karcag",
            "note": "Udvarba beállni tilos.",
            "deadline": "",
            "weight": 3000,
            "volume": 9.5,
            "﻿id": ""
        },
        {
            "id": "row_ff90601982a7",
            "round": 10,
            "city": "Hajdúszoboszló",
            "lat": 47.4431291,
            "lon": 21.3902995,
            "label": "Lakatos Nikolett",
            "address": "Hajdúszoboszló",
            "note": "Kapu kód: 1923#.",
            "deadline": "",
            "weight": 2700,
            "volume": 5,
            "﻿id": ""
        },
        {
            "id": "row_84198e8d7f9e",
            "round": 10,
            "city": "Debrecen",
            "lat": 47.531399,
            "lon": 21.6259782,
            "label": "Simon István",
            "address": "Debrecen",
            "note": "Cégér: Zöld Ajtó Kft.",
            "deadline": "",
            "weight": 4000,
            "volume": 2,
            "﻿id": ""
        },
        {
            "id": "row_04227b05e091",
            "round": 10,
            "city": "Debrecen",
            "lat": 47.6019039,
            "lon": 21.5936944,
            "label": "Kiss László",
            "address": "4024 Debrecen, Templom utca 189.",
            "note": "Kapu kód: 1923#.",
            "deadline": "",
            "weight": 500,
            "volume": 1.5,
            "﻿id": ""
        },
        {
            "id": "row_8362e2503560",
            "round": 10,
            "city": "Nyíregyháza",
            "lat": 47.9557802,
            "lon": 21.7167982,
            "label": "Horváth Zoltán",
            "address": "Nyíregyháza",
            "note": "Munkaidőn kívül nem átvehető.",
            "deadline": "",
            "weight": 2900,
            "volume": 4,
            "﻿id": ""
        },
        {
            "id": "row_87a47607c60d",
            "round": 10,
            "city": "Kisvárda",
            "lat": 48.2257593,
            "lon": 22.0784247,
            "label": "Szabó József",
            "address": "Kisvárda",
            "note": "Kutyára figyelni!",
            "deadline": "",
            "weight": 500,
            "volume": 11.5,
            "﻿id": ""
        },
        {
            "id": "row_61c03a3ebf0f",
            "round": 10,
            "city": "Vásárosnamény",
            "lat": 48.1266554,
            "lon": 22.3044121,
            "label": "Kiss Tamás",
            "address": "4800 Vásárosnamény",
            "note": "Készpénzes fizetés.",
            "deadline": "",
            "weight": 3100,
            "volume": 4.5,
            "﻿id": ""
        },
        {
            "id": "row_4cda267af2a6",
            "round": 10,
            "city": "Mátészalka",
            "lat": 47.9599749,
            "lon": 22.325447,
            "label": "Molnár Nikolett",
            "address": "4700 Mátészalka",
            "note": "Raklapemelő szükséges.",
            "deadline": "",
            "weight": 2600,
            "volume": 5,
            "﻿id": ""
        },
        {
            "id": "row_44683641f9a4",
            "round": 11,
            "city": "Dunaújváros",
            "lat": 46.9649048,
            "lon": 18.9405047,
            "label": "Vörös Csaba",
            "address": "Dunaújváros",
            "note": "1 órával előtte hívni.",
            "deadline": "",
            "weight": 2100,
            "volume": 6.5,
            "﻿id": ""
        },
        {
            "id": "row_084cd19f238f",
            "round": 11,
            "city": "Sárbogárd",
            "lat": 46.9287777,
            "lon": 18.684096,
            "label": "Liszkai Erika",
            "address": "7000 Sárbogárd, Szabadság utca 16.",
            "note": "Kapu kód: 1923#.",
            "deadline": "",
            "weight": 800,
            "volume": 4.5,
            "﻿id": ""
        },
        {
            "id": "row_affd562dfeab",
            "round": 11,
            "city": "Baja",
            "lat": 46.1826049,
            "lon": 18.958257,
            "label": "Varga Levente",
            "address": "6500 Baja",
            "note": "Csak előzetes egyeztetéssel.",
            "deadline": "",
            "weight": 4000,
            "volume": 4,
            "﻿id": ""
        },
        {
            "id": "row_c411f877902c",
            "round": 11,
            "city": "Komló",
            "lat": 46.1909463,
            "lon": 18.2597554,
            "label": "Balogh Bence",
            "address": "7300 Komló, Kossuth Lajos utca 29.",
            "note": "Portán bejelentkezni.",
            "deadline": "",
            "weight": 1700,
            "volume": 1.5,
            "﻿id": ""
        },
        {
            "id": "row_479d711300fb",
            "round": 11,
            "city": "Pécs",
            "lat": 46.0765092,
            "lon": 18.2280317,
            "label": "Fekete Réka",
            "address": "Pécs",
            "note": "Kerülni a földutat.",
            "deadline": "",
            "weight": 1200,
            "volume": 13.5,
            "﻿id": ""
        }
    ],
    "round_meta": {
        "2": {
            "planned_date": "HÉTFŐ!!!"
        }
    }
}