{
    "items": [
        {
            "id": "row_vrilwio0bwi",
            "city": "",
            "lat": null,
            "lon": null,
            "round": 0,
            "collapsed": true,
            "label": "",
            "address": "",
            "note": "",
            "weight": null,
            "volume": null
        },
        {
            "id": "row_23w2612se52",
            "label": "Márkus Lászlóné",
            "address": "Csősz Bartók Béla u 2B",
            "city": "Csősz",
            "note": "",
            "lat": 47.0394575,
            "lon": 18.4163602,
            "round": 2,
            "collapsed": true,
            "weight": 200,
            "volume": 2
        },
        {
            "id": "row_037sdru0o898",
            "label": "Rossmann 23",
            "address": "Fonyód, Ady Endre u. 7, 8640",
            "city": "Fonyód",
            "note": "",
            "weight": null,
            "volume": null,
            "lat": 46.7490826,
            "lon": 17.5582659,
            "round": 2,
            "collapsed": true
        },
        {
            "id": "row_0ftwkdtf8v4i",
            "label": "teszt",
            "address": "kaposvár",
            "city": "Kaposvár",
            "note": "",
            "weight": 2000,
            "volume": 1.5,
            "lat": 46.3564692,
            "lon": 17.7886886,
            "round": 2,
            "collapsed": true
        },
        {
            "id": "row_jrq2hx9ahyk",
            "label": "Virág Gábor",
            "address": "Szentkirályszabadja 8225 Gárdonyi u 5",
            "city": "Szentkirályszabadja",
            "note": "GK profil",
            "lat": 47.0556516,
            "lon": 17.9702828,
            "round": 3,
            "collapsed": true,
            "weight": 10,
            "volume": 10
        },
        {
            "id": "row_w52hcj9wzx",
            "label": "teszt",
            "address": "tapolca",
            "city": "Tapolca",
            "note": "teszt",
            "lat": 46.8820972,
            "lon": 17.4389619,
            "round": 3,
            "collapsed": true,
            "weight": 1000,
            "volume": 3
        },
        {
            "id": "row_f7b42h18kyv",
            "label": "teszt béla 987635",
            "address": "Keszthely",
            "city": "Keszthely",
            "note": "teszt",
            "lat": 46.7675081,
            "lon": 17.2462801,
            "round": 3,
            "collapsed": true,
            "volume": 3,
            "weight": 1000
        },
        {
            "id": "row_kpou94e3uj",
            "label": "etszt",
            "address": "zalaegerszeg",
            "city": "Zalaegerszeg",
            "note": "",
            "lat": 46.8415803,
            "lon": 16.8456316,
            "round": 3,
            "collapsed": true,
            "weight": 300,
            "volume": 4
        },
        {
            "id": "row_lhh0naj1lul",
            "label": "Tóth Bence",
            "address": "Tokodaltáró 2532 Vajaskúti dűlő 41",
            "city": "Tokodaltáró",
            "note": "gyapot",
            "lat": 47.7287809,
            "lon": 18.6903316,
            "round": 4,
            "collapsed": true,
            "weight": 200,
            "volume": 1
        },
        {
            "id": "row_f46d1qlxb18",
            "label": "József Szaló",
            "address": "Nyúl 9082 Széchenyi u 21",
            "city": "Nyúl",
            "note": "219 m² gyapot",
            "lat": 47.5952824,
            "lon": 17.6849241,
            "round": 4,
            "collapsed": true,
            "weight": 1000,
            "volume": 3
        },
        {
            "id": "row_hblr1l96q5e",
            "label": "teszt",
            "address": "lébény",
            "city": "Lébény",
            "note": "teszt",
            "lat": 47.7354942,
            "lon": 17.3906258,
            "round": 4,
            "collapsed": true,
            "weight": 300,
            "volume": 10
        },
        {
            "id": "row_zoo1vqjge4",
            "label": "Polacsek Gábor",
            "address": "Mosonszolnok 9245 Fő utca 15",
            "city": "Mosonszolnok",
            "note": "delap",
            "lat": 47.8534844,
            "lon": 17.1737716,
            "round": 4,
            "collapsed": true,
            "weight": 30,
            "volume": 30
        },
        {
            "id": "row_kkxpqs13jv",
            "label": "Toporné Kaszala Tamara",
            "address": "Bénye 2216 Szabó Dezső utca 34",
            "city": "Bénye",
            "note": "GK és gyapot teszt",
            "lat": 47.3519946,
            "lon": 19.5429526,
            "round": 7,
            "collapsed": true,
            "weight": 10,
            "volume": 10
        },
        {
            "id": "row_3oxwzqp5q3l",
            "label": "teszt jános",
            "address": "tápiószele",
            "city": "Tápiószele",
            "note": "teszt",
            "lat": 47.3320634,
            "lon": 19.875582,
            "round": 7,
            "collapsed": true,
            "weight": 1500,
            "volume": 2
        },
        {
            "id": "row_qa0ncevku1",
            "label": "TEszt",
            "address": "szolnok",
            "city": "Szolnok",
            "note": "teszt",
            "lat": 47.1753833,
            "lon": 20.1946279,
            "round": 7,
            "collapsed": true,
            "weight": 10,
            "volume": 10
        },
        {
            "id": "row_c6aw897o5h4",
            "label": "Babicz János",
            "address": "Mezőtúr",
            "city": "Mezőtúr",
            "note": "130 m² gyapot",
            "lat": 47.0004724,
            "lon": 20.6299513,
            "round": 7,
            "collapsed": true,
            "weight": 10,
            "volume": 10
        },
        {
            "id": "row_fzk21st1odf",
            "label": "Vajda Zsolt",
            "address": "Orosháza 5900 Luther u.42\/2",
            "city": "Orosháza",
            "note": "hungarocell és gyapot 150k",
            "lat": 46.5630622,
            "lon": 20.6763923,
            "round": 7,
            "collapsed": true,
            "weight": 10,
            "volume": 10
        },
        {
            "id": "row_foanm1qw27a",
            "label": "MOL",
            "address": "Gyöngyös, Puskin u. 3",
            "city": "Gyöngyös",
            "note": "TESZT",
            "lat": 47.7808538,
            "lon": 19.9218364,
            "round": 8,
            "collapsed": true,
            "weight": 1000,
            "volume": 10
        },
        {
            "id": "row_pmt6tpqerdr",
            "label": "Teszt József",
            "address": "Eger dobó tér",
            "city": "Eger",
            "note": "teszt termék",
            "lat": 47.9023902,
            "lon": 20.3768584,
            "round": 8,
            "collapsed": true,
            "weight": 200,
            "volume": 2
        },
        {
            "id": "row_hd7ww7mruyp",
            "label": "Radics József",
            "address": "Nagybarca 3641 Aradi utca 114",
            "city": "Nagybarca",
            "note": "GK + aprólék",
            "lat": 48.2500172,
            "lon": 20.5338161,
            "round": 10,
            "collapsed": true,
            "weight": 20,
            "volume": 1
        },
        {
            "id": "row_iqu53imkf9f",
            "label": "Kelemen Dávid",
            "address": "Sajószentpéter 3770 Váci Mihály utca 21",
            "city": "Sajószentpéter",
            "note": "24 m² GK",
            "lat": 48.2239639,
            "lon": 20.7231042,
            "round": 10,
            "collapsed": true,
            "weight": 300,
            "volume": 5
        },
        {
            "id": "row_awdsibwjl8t",
            "label": "Kávézó",
            "address": "Nyíregyháza, Bocskai u. 15, 4400",
            "city": "Nyíregyháza",
            "note": "teszt",
            "lat": 47.9542598,
            "lon": 21.7204847,
            "round": 10,
            "collapsed": true,
            "weight": 1123
        },
        {
            "id": "row_f9k3hm7lu1t",
            "city": "Debrecen",
            "lat": 47.531399,
            "lon": 21.6259782,
            "round": 10,
            "collapsed": true,
            "label": "teszt",
            "address": "debrecen",
            "note": "teszt",
            "weight": null,
            "volume": null
        },
        {
            "id": "row_b170x1n75k",
            "label": "Csaba Németh",
            "address": "Szekszárd 7100 Hrabovszky utca 4",
            "city": "Szekszárd",
            "note": "110 m² ekoboard",
            "lat": 46.3573675,
            "lon": 18.7052466,
            "round": 11,
            "collapsed": true,
            "weight": 0.1,
            "volume": 0.03
        }
    ],
    "round_meta": {
        "2": {
            "planned_date": "2025-10-31"
        }
    }
}