{
    "items": [
        {
            "id": "row_f64896cb39d5",
            "round": 3,
            "city": "Tihany",
            "lat": 46.9132712,
            "lon": 17.8882318,
            "label": "teszt",
            "address": "tihany",
            "note": "",
            "deadline": "2025-10-30",
            "weight": null,
            "volume": null,
            "﻿id": "row_2tm8isvwklq"
        },
        {
            "id": "row_hwvlwo39tbu",
            "city": "",
            "lat": null,
            "lon": null,
            "round": 0,
            "label": "",
            "address": "",
            "note": "",
            "deadline": "",
            "weight": null,
            "volume": null
        },
        {
            "id": "row_5e916a527d1b",
            "round": 2,
            "city": "Csősz",
            "lat": 47.0394575,
            "lon": 18.4163602,
            "label": "TESZT",
            "address": "Csősz Bartók Béla u 2B",
            "note": "21",
            "deadline": "2025-10-16",
            "weight": 250,
            "volume": 5.5,
            "﻿id": "row_23w2612se52"
        },
        {
            "id": "row_3e582b04f220",
            "round": 2,
            "city": "Fonyód",
            "lat": 46.7490826,
            "lon": 17.5582659,
            "label": "Rossmann 23",
            "address": "Fonyód, Ady Endre u. 7, 8640",
            "note": "",
            "deadline": "2025-10-13",
            "weight": null,
            "volume": null,
            "﻿id": "row_037sdru0o898"
        },
        {
            "id": "row_82576aecd534",
            "round": 2,
            "city": "Kaposvár",
            "lat": 46.3564692,
            "lon": 17.7886886,
            "label": "teszt",
            "address": "kaposvár",
            "note": "",
            "deadline": "2025-10-10",
            "weight": 2000,
            "volume": 1.5,
            "﻿id": "row_0ftwkdtf8v4i"
        },
        {
            "id": "row_d01d697aa2d3",
            "round": 3,
            "city": "Szentkirályszabadja",
            "lat": 47.0556516,
            "lon": 17.9702828,
            "label": "Virág Gábor",
            "address": "Szentkirályszabadja 8225 Gárdonyi u 5",
            "note": "GK profil",
            "deadline": "",
            "weight": 10,
            "volume": 10,
            "﻿id": "row_jrq2hx9ahyk"
        },
        {
            "id": "row_21e4ba2f9043",
            "round": 3,
            "city": "Tapolca",
            "lat": 46.8820972,
            "lon": 17.4389619,
            "label": "teszt",
            "address": "tapolca",
            "note": "teszt",
            "deadline": "",
            "weight": 1000,
            "volume": 3,
            "﻿id": "row_w52hcj9wzx"
        },
        {
            "id": "row_e0ce878a4247",
            "round": 3,
            "city": "Keszthely",
            "lat": 46.7675081,
            "lon": 17.2462801,
            "label": "teszt béla 987635",
            "address": "Keszthely",
            "note": "teszt",
            "deadline": "",
            "weight": 1000,
            "volume": 3,
            "﻿id": "row_f7b42h18kyv"
        },
        {
            "id": "row_e567774e9715",
            "round": 3,
            "city": "Zalaegerszeg",
            "lat": 46.8415803,
            "lon": 16.8456316,
            "label": "etszt",
            "address": "zalaegerszeg",
            "note": "",
            "deadline": "",
            "weight": 300,
            "volume": 4,
            "﻿id": "row_kpou94e3uj"
        },
        {
            "id": "row_4c4bce477903",
            "round": 4,
            "city": "Tokodaltáró",
            "lat": 47.7287809,
            "lon": 18.6903316,
            "label": "Tóth Bence",
            "address": "Tokodaltáró 2532 Vajaskúti dűlő 41",
            "note": "gyapot",
            "deadline": "",
            "weight": 200,
            "volume": 1,
            "﻿id": "row_lhh0naj1lul"
        },
        {
            "id": "row_b929e54eec2f",
            "round": 4,
            "city": "Nyúl",
            "lat": 47.5952824,
            "lon": 17.6849241,
            "label": "József Szaló",
            "address": "Nyúl 9082 Széchenyi u 21",
            "note": "219 m² gyapot",
            "deadline": "",
            "weight": 1000,
            "volume": 3,
            "﻿id": "row_f46d1qlxb18"
        },
        {
            "id": "row_5b0b8f1bdc09",
            "round": 4,
            "city": "Lébény",
            "lat": 47.7354942,
            "lon": 17.3906258,
            "label": "teszt",
            "address": "lébény",
            "note": "teszt",
            "deadline": "",
            "weight": 300,
            "volume": 10,
            "﻿id": "row_hblr1l96q5e"
        },
        {
            "id": "row_8c7c24f5c0ec",
            "round": 4,
            "city": "Mosonszolnok",
            "lat": 47.8534736,
            "lon": 17.1737528,
            "label": "Polacsek Gábor",
            "address": "Mosonszolnok 9245 Fő utca 15",
            "note": "delap",
            "deadline": "",
            "weight": 30,
            "volume": 33.5,
            "﻿id": "row_zoo1vqjge4"
        },
        {
            "id": "row_faa8d7517041",
            "round": 7,
            "city": "Bénye",
            "lat": 47.3519946,
            "lon": 19.5429526,
            "label": "Toporné Kaszala Tamara",
            "address": "Bénye 2216 Szabó Dezső utca 34",
            "note": "GK és gyapot teszt",
            "deadline": "",
            "weight": 10,
            "volume": 10,
            "﻿id": "row_kkxpqs13jv"
        },
        {
            "id": "row_0d5286089010",
            "round": 7,
            "city": "Tápiószele",
            "lat": 47.3320634,
            "lon": 19.875582,
            "label": "teszt jános",
            "address": "tápiószele",
            "note": "teszt",
            "deadline": "",
            "weight": 1500,
            "volume": 2,
            "﻿id": "row_3oxwzqp5q3l"
        },
        {
            "id": "row_88e65f252a49",
            "round": 7,
            "city": "Szolnok",
            "lat": 47.1753833,
            "lon": 20.1946279,
            "label": "TEszt",
            "address": "szolnok",
            "note": "teszt",
            "deadline": "",
            "weight": 10,
            "volume": 10,
            "﻿id": "row_qa0ncevku1"
        },
        {
            "id": "row_1538773344f1",
            "round": 7,
            "city": "Martfű",
            "lat": 47.0186153,
            "lon": 20.2813933,
            "label": "Vajda Zsolt",
            "address": "martfű",
            "note": "hungarocell és gyapot 150k",
            "deadline": "",
            "weight": 10,
            "volume": 10,
            "﻿id": "row_fzk21st1odf"
        },
        {
            "id": "row_5009e5222528",
            "round": 7,
            "city": "Mezőtúr",
            "lat": 47.0004724,
            "lon": 20.6299513,
            "label": "Babicz János",
            "address": "Mezőtúr",
            "note": "130 m² gyapot",
            "deadline": "",
            "weight": 10,
            "volume": 10,
            "﻿id": "row_c6aw897o5h4"
        },
        {
            "id": "row_7068d62669d5",
            "round": 8,
            "city": "Gyöngyös",
            "lat": 47.7808538,
            "lon": 19.9218364,
            "label": "MOL",
            "address": "Gyöngyös, Puskin u. 3",
            "note": "TESZT",
            "deadline": "",
            "weight": 1000,
            "volume": 10,
            "﻿id": "row_foanm1qw27a"
        },
        {
            "id": "row_1002c42d0450",
            "round": 8,
            "city": "Verpelét",
            "lat": 47.8490107,
            "lon": 20.2279112,
            "label": "Teszt János",
            "address": "Verpelét",
            "note": "gyapot",
            "deadline": "2025-10-31",
            "weight": null,
            "volume": null,
            "﻿id": "row_vrilwio0bwi"
        },
        {
            "id": "row_75ac003dd18a",
            "round": 8,
            "city": "Eger",
            "lat": 47.9023902,
            "lon": 20.3768584,
            "label": "Teszt József",
            "address": "Eger dobó tér",
            "note": "teszt termék",
            "deadline": "",
            "weight": 200,
            "volume": 2,
            "﻿id": "row_pmt6tpqerdr"
        },
        {
            "id": "row_35262bb64dc3",
            "round": 10,
            "city": "Nagybarca",
            "lat": 48.2500172,
            "lon": 20.5338161,
            "label": "Radics József",
            "address": "Nagybarca 3641 Aradi utca 114",
            "note": "GK + aprólék",
            "deadline": "",
            "weight": 20,
            "volume": 1,
            "﻿id": "row_hd7ww7mruyp"
        },
        {
            "id": "row_d1bbd93c2d45",
            "round": 10,
            "city": "Sajószentpéter",
            "lat": 48.2239639,
            "lon": 20.7231042,
            "label": "Kelemen Dávid",
            "address": "Sajószentpéter 3770 Váci Mihály utca 21",
            "note": "24 m² GK",
            "deadline": "",
            "weight": 300,
            "volume": 5,
            "﻿id": "row_iqu53imkf9f"
        },
        {
            "id": "row_16d81b5c89d2",
            "round": 10,
            "city": "Nyíregyháza",
            "lat": 47.9542598,
            "lon": 21.7204847,
            "label": "Kávézó",
            "address": "Nyíregyháza, Bocskai u. 15, 4400",
            "note": "teszt",
            "deadline": "",
            "weight": 1123,
            "volume": null,
            "﻿id": "row_awdsibwjl8t"
        },
        {
            "id": "row_af0623f9b634",
            "round": 10,
            "city": "Debrecen",
            "lat": 47.531399,
            "lon": 21.6259782,
            "label": "teszt",
            "address": "debrecen",
            "note": "teszt",
            "deadline": "",
            "weight": null,
            "volume": null,
            "﻿id": "row_f9k3hm7lu1t"
        },
        {
            "id": "row_f754b0b3550f",
            "round": 11,
            "city": "Paks",
            "lat": 46.6229468,
            "lon": 18.8589364,
            "label": "teszt",
            "address": "paks",
            "note": "",
            "deadline": "",
            "weight": null,
            "volume": null,
            "﻿id": "row_uw2cnd8tfwq"
        },
        {
            "id": "row_0cbdf2c276f7",
            "round": 11,
            "city": "Szekszárd",
            "lat": 46.3573675,
            "lon": 18.7052466,
            "label": "Csaba Németh",
            "address": "Szekszárd 7100 Hrabovszky utca 4",
            "note": "110 m² ekoboard",
            "deadline": "",
            "weight": 40,
            "volume": 2,
            "﻿id": "row_b170x1n75k"
        }
    ],
    "round_meta": {
        "2": {
            "planned_date": "2025-10-31"
        }
    }
}